{
  "garages": [
    {
      "name": "AutoCare Colombo",
      "latitude": 6.9271,
      "longitude": 79.8612,
      "phone": "+94771234567"
    },
    {
      "name": "Super Auto Garage - Kandy",
      "latitude": 7.2906,
      "longitude": 80.6337,
      "phone": "+94775678901"
    },
    {
      "name": "Jaffna Auto Repairs",
      "latitude": 9.6615,
      "longitude": 80.0255,
      "phone": "+94772345678"
    },
    {
      "name": "Galle Vehicle Service",
      "latitude": 6.0326,
      "longitude": 80.2168,
      "phone": "+94773456789"
    },
    {
      "name": "Matara Auto Works",
      "latitude": 5.9549,
      "longitude": 80.5549,
      "phone": "+94774567890"
    },
    {
      "name": "Kurunegala Car Fix",
      "latitude": 7.4863,
      "longitude": 80.3623,
      "phone": "+94775678912"
    },
    {
      "name": "Negombo Auto Clinic",
      "latitude": 7.2083,
      "longitude": 79.8358,
      "phone": "+94776789012"
    },
    {
      "name": "Ratnapura Auto Solutions",
      "latitude": 6.7056,
      "longitude": 80.3847,
      "phone": "+94777890123"
    },
    {
      "name": "Anuradhapura Car Care",
      "latitude": 8.3121,
      "longitude": 80.4131,
      "phone": "+94778901234"
    },
    {
      "name": "Batticaloa Auto Fix",
      "latitude": 7.7175,
      "longitude": 81.6924,
      "phone": "+94779012345"
    },
    {
      "name": "Veyangoda Auto Service",
      "latitude": 6.9784,
      "longitude": 80.1328,
      "phone": "+94777123456"
    },
    {
      "name": "Veyangoda Nisal Car Service",
      "latitude": 7.1482143,
      "longitude": 80.0706646,
      "phone": "+94777123456"
    },
    {
      "name": "Garage, SUSL",
      "latitude": 6.7141,
      "longitude": 80.7903,
      "phone": "+94777123456"
    },
    {
      "name": "Auto Mart Service Station",
      "latitude": 6.7175,
      "longitude": 80.3833,
      "phone": "+94452255025"
    },
    {
      "name": "Madusanka Service Center",
      "latitude": 6.7160,
      "longitude": 80.7890,
      "phone": "+94765816855"
    },
    {
      "name": "Jayasiri Auto Parts (Pvt) Ltd",
      "latitude": 7.2511,
      "longitude": 80.4405,
      "phone": "+94352248972"
    },
    {
      "name": "Premadasa Garage",
      "latitude": 7.2511,
      "longitude": 80.4405,
      "phone": "+94112478709"
    },
    {
      "name": "Rathnaweera Auto Care",
      "latitude": 6.3385,
      "longitude": 80.8485,
      "phone": "+94768223055"
    },
    {
      "name": "Sarathchandra Motors",
      "latitude": 6.3380,
      "longitude": 80.8480,
      "phone": "+94704016000"
    },
    {
      "name": "Ruwanpura Auto Engineering",
      "latitude": 6.6820,
      "longitude": 80.3990,
      "phone": "+94452233463"
    },
    {
      "name": "Kegalu Motor Stores",
      "latitude": 7.2510,
      "longitude": 80.3460,
      "phone": "+94352230836"
    },
    {
      "name": "Nihal Motors",
      "latitude": 6.6620,
      "longitude": 80.6950,
      "phone": "+94722813618"
    },
    {
      "name": "Dayara Auto Engineers PVT LTD",
      "latitude": 6.6620,
      "longitude": 80.6950,
      "phone": "+94775561680"
    }
  ]
}